{
  "data": {
    "product": {
      "id": "9A199",
      "name": "99 Apples"
    },
    "locations": [
      {
        "id": "1401158001-4005787",
        "name": "SAVE A STEP",
        "address": "6420 W HWY 146 STE 7",
        "city": "CRESTWOOD",
        "state": "KY",
        "zip_code": "40014",
        "license_type": "OFF-PREMISE",
        "latitude": "38.329685",
        "longitude": "-85.464382",
        "cases": "2.67",
        "cases12": "3.33",
        "distance": 1.081878838225216
      },
      {
        "id": "1401158001-2496737",
        "name": "LIQUOR WORLD",
        "address": "12418 LAGRANGE RD STE 100 265 WINE \u0026 SPIRITS",
        "city": "LOUISVILLE",
        "state": "KY",
        "zip_code": "402452905",
        "license_type": "OFF-PREMISE",
        "latitude": "38.289724",
        "longitude": "-85.50935",
        "cases": "0.67",
        "cases12": "5.33",
        "distance": 2.7053947717546274
      },
      {
        "id": "1401158001-2494057",
        "name": "FINCASTLE WINE \u0026 LIQUORS",
        "address": "4106 MURPHY LN",
        "city": "LOUISVILLE",
        "state": "KY",
        "zip_code": "402411860",
        "license_type": "OFF-PREMISE",
        "latitude": "38.303772",
        "longitude": "-85.534511",
        "cases": "0.67",
        "cases12": "1.33",
        "distance": 3.1211305008238877
      },
      {
        "id": "1401158001-4449240",
        "name": "CHAMBERLAIN LIQUORS",
        "address": "11300 WESTPORT RD STE 200",
        "city": "LOUISVILLE",
        "state": "KY",
        "zip_code": "402411900",
        "license_type": "OFF-PREMISE",
        "latitude": "38.298852",
        "longitude": "-85.540652",
        "cases": "1.2",
        "cases12": "1.2",
        "distance": 3.5694195848858796
      },
      {
        "id": "1401158001-3233976",
        "name": "LIQUOR WORLD OLD HENRY",
        "address": "2300 TERRA CROSSING BLVD",
        "city": "LOUISVILLE",
        "state": "KY",
        "zip_code": "402455905",
        "license_type": "OFF-PREMISE",
        "latitude": "38.271089",
        "longitude": "-85.49602",
        "cases": "0.67",
        "cases12": "1.33",
        "distance": 3.6343227941320566
      },
      {
        "id": "1401158001-4494143",
        "name": "LIQUOR PALATE",
        "address": "3707 CHAMBERLAIN LN STE 101",
        "city": "LOUISVILLE",
        "state": "KY",
        "zip_code": "402412091",
        "license_type": "OFF-PREMISE",
        "latitude": "38.301585",
        "longitude": "-85.545575",
        "cases": "1.33",
        "cases12": "4.0",
        "distance": 3.731200326015567
      },
      {
        "id": "1401158001-4514372",
        "name": "VICTOR LIQUOR STORE",
        "address": "4101 HWY 146",
        "city": "LA GRANGE",
        "state": "KY",
        "zip_code": "40031",
        "license_type": "OFF-PREMISE",
        "latitude": "38.38474",
        "longitude": "-85.437184",
        "cases": "1.0",
        "cases12": "1.0",
        "distance": 4.939513936453163
      },
      {
        "id": "1401158001-2900726",
        "name": "KROGER LIQUORS",
        "address": "12607 SHELBYVILLE RD",
        "city": "LOUISVILLE",
        "state": "KY",
        "zip_code": "402431532",
        "license_type": "OFF-PREMISE",
        "latitude": "38.245347",
        "longitude": "-85.520441",
        "cases": "1.33",
        "cases12": "2.67",
        "distance": 5.7242386616098875
      },
      {
        "id": "1401158001-3186690",
        "name": "ZORAS WINE \u0026 LIQUOR",
        "address": "105 JOHNSON RD STE A",
        "city": "LOUISVILLE",
        "state": "KY",
        "zip_code": "402454298",
        "license_type": "OFF-PREMISE",
        "latitude": "38.233868",
        "longitude": "-85.453152",
        "cases": "0.67",
        "cases12": "0.67",
        "distance": 6.325995861169661
      },
      {
        "id": "1401158001-4014681",
        "name": "LIQUOR WORLD",
        "address": "719 SPECKMAN RD",
        "city": "LOUISVILLE",
        "state": "KY",
        "zip_code": "402431876",
        "license_type": "OFF-PREMISE",
        "latitude": "38.231983",
        "longitude": "-85.542423",
        "cases": "2.0",
        "cases12": "6.0",
        "distance": 7.060121975163733
      },
      {
        "id": "1401158001-4012790",
        "name": "PROSPECT LIQUORS",
        "address": "13306 W HWY 42",
        "city": "PROSPECT",
        "state": "KY",
        "zip_code": "400599249",
        "license_type": "OFF-PREMISE",
        "latitude": "38.363557",
        "longitude": "-85.603625",
        "cases": "1.67",
        "cases12": "1.67",
        "distance": 7.166646251327342
      },
      {
        "id": "1401158001-2861612",
        "name": "KROGER LIQUORS",
        "address": "5949 TIMBER RIDGE DR",
        "city": "PROSPECT",
        "state": "KY",
        "zip_code": "400598132",
        "license_type": "OFF-PREMISE",
        "latitude": "38.340426",
        "longitude": "-85.622329",
        "cases": "0.01",
        "cases12": "1.34",
        "distance": 7.697337906996971
      },
      {
        "id": "1401158001-4487449",
        "name": "FAST LANE LIQUOR",
        "address": "810 KY 53",
        "city": "LA GRANGE",
        "state": "KY",
        "zip_code": "400318706",
        "license_type": "OFF-PREMISE",
        "latitude": "38.397232",
        "longitude": "-85.371207",
        "cases": "2.0",
        "cases12": "2.67",
        "distance": 7.92167731721093
      },
      {
        "id": "1401158001-2901373",
        "name": "KROGER LIQUORS",
        "address": "2036 S HWY 53",
        "city": "LA GRANGE",
        "state": "KY",
        "zip_code": "40031",
        "license_type": "OFF-PREMISE",
        "latitude": "38.394345",
        "longitude": "-85.366338",
        "cases": "0.06",
        "cases12": "0.75",
        "distance": 7.998530453725444
      },
      {
        "id": "1401158001-3611613",
        "name": "LYNDON SMOKE \u0026 LIQUOR",
        "address": "808 LYNDON LN",
        "city": "LOUISVILLE",
        "state": "KY",
        "zip_code": "402223898",
        "license_type": "OFF-PREMISE",
        "latitude": "38.262704",
        "longitude": "-85.608736",
        "cases": "2.0",
        "cases12": "7.33",
        "distance": 8.013753798850042
      },
      {
        "id": "1401158001-3591876",
        "name": "ALL ABOARD LIQUORS",
        "address": "202 S 1ST ST",
        "city": "LA GRANGE",
        "state": "KY",
        "zip_code": "400312208",
        "license_type": "OFF-PREMISE",
        "latitude": "38.406339",
        "longitude": "-85.37897",
        "cases": "1.33",
        "cases12": "2.0",
        "distance": 8.047332480574772
      },
      {
        "id": "1401158001-2901394",
        "name": "KROGER LIQUORS",
        "address": "2227 HOLIDAY MANOR CTR",
        "city": "LOUISVILLE",
        "state": "KY",
        "zip_code": "402226463",
        "license_type": "OFF-PREMISE",
        "latitude": "38.283672",
        "longitude": "-85.630479",
        "cases": "1.33",
        "cases12": "4.67",
        "distance": 8.479229103802307
      },
      {
        "id": "1401158001-2491307",
        "name": "LIQUOR BARN",
        "address": "1850 S HURSTBOURNE PKWY STE 104",
        "city": "LOUISVILLE",
        "state": "KY",
        "zip_code": "402201648",
        "license_type": "OFF-PREMISE",
        "latitude": "38.22046",
        "longitude": "-85.58246",
        "cases": "0.67",
        "cases12": "1.33",
        "distance": 8.908569121689606
      },
      {
        "id": "1401158001-2494499",
        "name": "PARTY MART",
        "address": "4808 BROWNSBORO RD",
        "city": "LOUISVILLE",
        "state": "KY",
        "zip_code": "402072381",
        "license_type": "OFF-PREMISE",
        "latitude": "38.278385",
        "longitude": "-85.637419",
        "cases": "1.0",
        "cases12": "1.0",
        "distance": 8.955035525362788
      },
      {
        "id": "1401158001-4555565",
        "name": "LIQUOR STORE LLC",
        "address": "1925 S HURSTBOURNE PKWY",
        "city": "LOUISVILLE",
        "state": "KY",
        "zip_code": "402201645",
        "license_type": "OFF-PREMISE",
        "latitude": "38.215867",
        "longitude": "-85.584012",
        "cases": "0.67",
        "cases12": "0.67",
        "distance": 9.212243776538662
      },
      {
        "id": "1401158001-2900725",
        "name": "KROGER LIQUORS",
        "address": "12611 TAYLORSVILLE RD STE 102",
        "city": "LOUISVILLE",
        "state": "KY",
        "zip_code": "402994452",
        "license_type": "OFF-PREMISE",
        "latitude": "38.188765",
        "longitude": "-85.518777",
        "cases": "1.33",
        "cases12": "2.67",
        "distance": 9.454870928058451
      },
      {
        "id": "1401158001-3790476",
        "name": "KROGER LIQUORS",
        "address": "291 N HUBBARDS LN STB 49",
        "city": "LOUISVILLE",
        "state": "KY",
        "zip_code": "402072295",
        "license_type": "OFF-PREMISE",
        "latitude": "38.258659",
        "longitude": "-85.637924",
        "cases": "1.33",
        "cases12": "1.33",
        "distance": 9.53150184280441
      },
      {
        "id": "1401158001-2901378",
        "name": "KROGER LIQUORS",
        "address": "9080 TAYLORSVILLE RD",
        "city": "LOUISVILLE",
        "state": "KY",
        "zip_code": "402991750",
        "license_type": "OFF-PREMISE",
        "latitude": "38.213265",
        "longitude": "-85.590729",
        "cases": "1.33",
        "cases12": "2.67",
        "distance": 9.576472441413657
      },
      {
        "id": "1401158001-3346826",
        "name": "TAYLORSVILLE LIQUORS",
        "address": "9715 TAYLORSVILLE RD",
        "city": "LOUISVILLE",
        "state": "KY",
        "zip_code": "402992750",
        "license_type": "OFF-PREMISE",
        "latitude": "38.203564",
        "longitude": "-85.576048",
        "cases": "2.0",
        "cases12": "6.0",
        "distance": 9.671424876974111
      },
      {
        "id": "1401158001-3602202",
        "name": "COXS SMOKERS OUTLET",
        "address": "3920 RUCKRIEGEL PKWY STE 100",
        "city": "LOUISVILLE",
        "state": "KY",
        "zip_code": "402993975",
        "license_type": "OFF-PREMISE",
        "latitude": "38.190622",
        "longitude": "-85.568095",
        "cases": "1.33",
        "cases12": "2.0",
        "distance": 10.23880895818164
      },
      {
        "id": "1401158001-3645003",
        "name": "FLYING DUTCHMAN LIQUORS",
        "address": "4013 DUTCHMANS LN",
        "city": "LOUISVILLE",
        "state": "KY",
        "zip_code": "402074703",
        "license_type": "OFF-PREMISE",
        "latitude": "38.233887",
        "longitude": "-85.634916",
        "cases": "1.33",
        "cases12": "2.67",
        "distance": 10.304583693390715
      },
      {
        "id": "1401158001-3658393",
        "name": "LIQUOR LAND HIKES POINT",
        "address": "4049 TAYLORSVILLE RD",
        "city": "LOUISVILLE",
        "state": "KY",
        "zip_code": "402201538",
        "license_type": "OFF-PREMISE",
        "latitude": "38.220187",
        "longitude": "-85.621045",
        "cases": "2.33",
        "cases12": "3.67",
        "distance": 10.333778175198823
      },
      {
        "id": "1401158001-2901397",
        "name": "KROGER LIQUORS",
        "address": "3039 BRECKENRIDGE LN",
        "city": "LOUISVILLE",
        "state": "KY",
        "zip_code": "402202101",
        "license_type": "OFF-PREMISE",
        "latitude": "38.217481",
        "longitude": "-85.626256",
        "cases": "1.33",
        "cases12": "2.67",
        "distance": 10.668089411497354
      },
      {
        "id": "1401158001-4340703",
        "name": "WALGREENS",
        "address": "3805 BROWNSBORO RD",
        "city": "LOUISVILLE",
        "state": "KY",
        "zip_code": "402071821",
        "license_type": "OFF-PREMISE",
        "latitude": "38.266048",
        "longitude": "-85.666484",
        "cases": "0.06",
        "cases12": "0.06",
        "distance": 10.731198399604718
      },
      {
        "id": "1401158001-4514781",
        "name": "LIQUOR OUTLET",
        "address": "2960 BRECKENRIDGE LN",
        "city": "LOUISVILLE",
        "state": "KY",
        "zip_code": "402201409",
        "license_type": "OFF-PREMISE",
        "latitude": "38.218767",
        "longitude": "-85.629478",
        "cases": "0.67",
        "cases12": "0.67",
        "distance": 10.73721816451225
      },
      {
        "id": "1401158001-2492982",
        "name": "COXS SMOKERS OUTLET",
        "address": "2928 HIKES LN",
        "city": "LOUISVILLE",
        "state": "KY",
        "zip_code": "402181766",
        "license_type": "OFF-PREMISE",
        "latitude": "38.210411",
        "longitude": "-85.641058",
        "cases": "2.0",
        "cases12": "2.67",
        "distance": 11.590699898619418
      },
      {
        "id": "1400809001-3334891",
        "name": "CREEKSIDE LIQUORS",
        "address": "1604 ALLISON LN STE 1 SUITE 1",
        "city": "JEFFERSONVILLE",
        "state": "IN",
        "zip_code": "471305537",
        "license_type": "OFF-PREMISE",
        "latitude": "38.311248",
        "longitude": "-85.701703",
        "cases": "1.33",
        "cases12": "2.67",
        "distance": 11.927593382463373
      },
      {
        "id": "1401158001-2492960",
        "name": "CAPTAIN CELLAR",
        "address": "2915 BROWNSBORO RD",
        "city": "LOUISVILLE",
        "state": "KY",
        "zip_code": "402061403",
        "license_type": "OFF-PREMISE",
        "latitude": "38.260297",
        "longitude": "-85.687481",
        "cases": "1.33",
        "cases12": "1.33",
        "distance": 11.93683088044141
      },
      {
        "id": "1401158001-2492917",
        "name": "BOWMAN FIELD LIQUORS",
        "address": "2800 TAYLORSVILLE RD",
        "city": "LOUISVILLE",
        "state": "KY",
        "zip_code": "402053160",
        "license_type": "OFF-PREMISE",
        "latitude": "38.222627",
        "longitude": "-85.668161",
        "cases": "1.33",
        "cases12": "3.33",
        "distance": 12.22582054533634
      },
      {
        "id": "1400809001-4121164",
        "name": "KROGER MARKETPLACE",
        "address": "1027 JEFFERSONVILLE COMMONS DR",
        "city": "JEFFERSONVILLE",
        "state": "IN",
        "zip_code": "471308395",
        "license_type": "OFF-PREMISE",
        "latitude": "38.330105",
        "longitude": "-85.710475",
        "cases": "1.33",
        "cases12": "6.67",
        "distance": 12.386923395570264
      },
      {
        "id": "1401158001-3490382",
        "name": "LIQUOR WORLD",
        "address": "5258 BARDSTOWN RD",
        "city": "LOUISVILLE",
        "state": "KY",
        "zip_code": "402911766",
        "license_type": "OFF-PREMISE",
        "latitude": "38.168712",
        "longitude": "-85.605065",
        "cases": "0.67",
        "cases12": "2.0",
        "distance": 12.548541186812235
      },
      {
        "id": "1401158001-2494474",
        "name": "COXS SMOKERS OUTLET",
        "address": "4780 BARDSTOWN RD",
        "city": "LOUISVILLE",
        "state": "KY",
        "zip_code": "402184006",
        "license_type": "OFF-PREMISE",
        "latitude": "38.178534",
        "longitude": "-85.623319",
        "cases": "1.33",
        "cases12": "2.0",
        "distance": 12.557314150314221
      },
      {
        "id": "1401158001-3418558",
        "name": "BEVERAGE WORLD WINE \u0026 SPIRITS",
        "address": "2332 BROWNSBORO RD",
        "city": "LOUISVILLE",
        "state": "KY",
        "zip_code": "402062155",
        "license_type": "OFF-PREMISE",
        "latitude": "38.258077",
        "longitude": "-85.702004",
        "cases": "2.0",
        "cases12": "9.07",
        "distance": 12.72771135577113
      },
      {
        "id": "1401158001-3130335",
        "name": "LIQUOR WORLD",
        "address": "2207 GOLDSMITH LN 056TB786",
        "city": "LOUISVILLE",
        "state": "KY",
        "zip_code": "402181004",
        "license_type": "OFF-PREMISE",
        "latitude": "38.209451",
        "longitude": "-85.668291",
        "cases": "1.33",
        "cases12": "3.33",
        "distance": 12.768350030654181
      },
      {
        "id": "1401158001-4617768",
        "name": "FERN AND MOODYS LIQUOR",
        "address": "3903 BARDSTOWN RD",
        "city": "LOUISVILLE",
        "state": "KY",
        "zip_code": "402182628",
        "license_type": "OFF-PREMISE",
        "latitude": "38.195764",
        "longitude": "-85.653462",
        "cases": "2.67",
        "cases12": "4.0",
        "distance": 12.771923596942866
      },
      {
        "id": "1401158001-3130386",
        "name": "NORFOLK LIQUOR",
        "address": "4308 FEGENBUSH LN 56B12094",
        "city": "LOUISVILLE",
        "state": "KY",
        "zip_code": "402281170",
        "license_type": "OFF-PREMISE",
        "latitude": "38.184362",
        "longitude": "-85.638928",
        "cases": "0.67",
        "cases12": "0.67",
        "distance": 12.787527102847491
      },
      {
        "id": "1402199001-3163351",
        "name": "DAIRY MART",
        "address": "1821 E 8TH ST 0",
        "city": "JEFFERSONVILLE",
        "state": "IN",
        "zip_code": "471304869",
        "license_type": "OFF-PREMISE",
        "latitude": "38.2934",
        "longitude": "-85.716696",
        "cases": "0.67",
        "cases12": "0.67",
        "distance": 12.874852525493203
      },
      {
        "id": "1401158001-2895053",
        "name": "KAREM DEEB LIQUORS",
        "address": "2228 TAYLORSVILLE RD 56RB5123",
        "city": "LOUISVILLE",
        "state": "KY",
        "zip_code": "402052102",
        "license_type": "OFF-PREMISE",
        "latitude": "38.223128",
        "longitude": "-85.683475",
        "cases": "0.01",
        "cases12": "0.02",
        "distance": 12.901393659133515
      },
      {
        "id": "1401158001-3220671",
        "name": "LIQUOR BARN EXPRESS",
        "address": "3614 BUECHEL BYP STE 101",
        "city": "LOUISVILLE",
        "state": "KY",
        "zip_code": "402182245",
        "license_type": "OFF-PREMISE",
        "latitude": "38.198719",
        "longitude": "-85.663836",
        "cases": "1.0",
        "cases12": "2.73",
        "distance": 13.052258366699077
      },
      {
        "id": "1401158001-4180358",
        "name": "CLIFTON 1ST LIQUOR SHOP",
        "address": "1904 FRANKFORT AVE",
        "city": "LOUISVILLE",
        "state": "KY",
        "zip_code": "402062027",
        "license_type": "OFF-PREMISE",
        "latitude": "38.255049",
        "longitude": "-85.712789",
        "cases": "0.67",
        "cases12": "0.67",
        "distance": 13.349059366583024
      },
      {
        "id": "1400809001-2769218",
        "name": "RED CARPET LIQUOR",
        "address": "739 CRESTVIEW CT C1000559",
        "city": "JEFFERSONVILLE",
        "state": "IN",
        "zip_code": "471304428",
        "license_type": "OFF-PREMISE",
        "latitude": "38.286834",
        "longitude": "-85.724896",
        "cases": "1.33",
        "cases12": "2.67",
        "distance": 13.390862468731147
      },
      {
        "id": "1401158001-2901380",
        "name": "KROGER LIQUORS",
        "address": "6910 BARDSTOWN RD",
        "city": "LOUISVILLE",
        "state": "KY",
        "zip_code": "402913223",
        "license_type": "OFF-PREMISE",
        "latitude": "38.146237",
        "longitude": "-85.587585",
        "cases": "0.67",
        "cases12": "2.67",
        "distance": 13.459037275605219
      },
      {
        "id": "1401158001-3958415",
        "name": "LIQUOR WORLD",
        "address": "1779 BARDSTOWN RD",
        "city": "LOUISVILLE",
        "state": "KY",
        "zip_code": "402051255",
        "license_type": "OFF-PREMISE",
        "latitude": "38.228791",
        "longitude": "-85.701005",
        "cases": "2.33",
        "cases12": "5.67",
        "distance": 13.523486658334061
      },
      {
        "id": "1401158001-3990117",
        "name": "COUNTRY LIQUOR AND TOBACCO",
        "address": "11 LAKE JERICHO RD STE 1 2 3",
        "city": "PENDLETON",
        "state": "KY",
        "zip_code": "40055",
        "license_type": "OFF-PREMISE",
        "latitude": "38.45177",
        "longitude": "-85.294347",
        "cases": "0.67",
        "cases12": "0.67",
        "distance": 13.533643897034606
      },
      {
        "id": "1401158001-3174805",
        "name": "NEWBURG LIQUOR STORE",
        "address": "5104 E INDIAN TRAIL 0",
        "city": "LOUISVILLE",
        "state": "KY",
        "zip_code": "402183363",
        "license_type": "OFF-PREMISE",
        "latitude": "38.184868",
        "longitude": "-85.663896",
        "cases": "0.67",
        "cases12": "2.0",
        "distance": 13.701685504600263
      },
      {
        "id": "1401158001-4622798",
        "name": "SMILEYS SHELL",
        "address": "3905 NEWBURG RD",
        "city": "LOUISVILLE",
        "state": "KY",
        "zip_code": "402185052",
        "license_type": "OFF-PREMISE",
        "latitude": "38.179834",
        "longitude": "-85.660071",
        "cases": "0.67",
        "cases12": "0.67",
        "distance": 13.799679236211261
      },
      {
        "id": "1401158001-4016072",
        "name": "LIQUOR NIGHT SHOP",
        "address": "1403 LEXINGTON RD",
        "city": "LOUISVILLE",
        "state": "KY",
        "zip_code": "402061928",
        "license_type": "OFF-PREMISE",
        "latitude": "38.250706",
        "longitude": "-85.719805",
        "cases": "0.67",
        "cases12": "0.67",
        "distance": 13.811560333410336
      },
      {
        "id": "1401158001-3234123",
        "name": "NEXT DOOR SPIRIT SHOPPE",
        "address": "3303 NEWBURG RD STE A",
        "city": "LOUISVILLE",
        "state": "KY",
        "zip_code": "402182426",
        "license_type": "OFF-PREMISE",
        "latitude": "38.200839",
        "longitude": "-85.68512",
        "cases": "3.33",
        "cases12": "10.0",
        "distance": 13.855311104566026
      },
      {
        "id": "1401158001-4417915",
        "name": "FRIENDLY LIQUOR",
        "address": "2414 SHELBYVILLE RD",
        "city": "SHELBYVILLE",
        "state": "KY",
        "zip_code": "400659118",
        "license_type": "OFF-PREMISE",
        "latitude": "38.214838",
        "longitude": "-85.264284",
        "cases": "1.33",
        "cases12": "1.33",
        "distance": 13.966369943141103
      },
      {
        "id": "1401158001-2490152",
        "name": "VAULT LIQUORS \u0026 SMOKES",
        "address": "1270 BARDSTOWN RD",
        "city": "LOUISVILLE",
        "state": "KY",
        "zip_code": "402041357",
        "license_type": "OFF-PREMISE",
        "latitude": "38.235251",
        "longitude": "-85.715676",
        "cases": "1.33",
        "cases12": "4.0",
        "distance": 14.02900204552216
      },
      {
        "id": "1400809001-3661476",
        "name": "RIVERTOWNE LIQUORS",
        "address": "1703 CHARLESTOWN NEW ALBANY RD",
        "city": "JEFFERSONVILLE",
        "state": "IN",
        "zip_code": "471307562",
        "license_type": "OFF-PREMISE",
        "latitude": "38.325468",
        "longitude": "-85.742302",
        "cases": "1.33",
        "cases12": "4.67",
        "distance": 14.102930159901753
      },
      {
        "id": "1400809001-2768489",
        "name": "ALS LIQUOR",
        "address": "325 E 10TH ST C1004846",
        "city": "JEFFERSONVILLE",
        "state": "IN",
        "zip_code": "471303646",
        "license_type": "OFF-PREMISE",
        "latitude": "38.281119",
        "longitude": "-85.742753",
        "cases": "2.0",
        "cases12": "6.0",
        "distance": 14.417309705332851
      },
      {
        "id": "1401158001-2483726",
        "name": "LIQUOR WORLD",
        "address": "50 HAVEN HILL RD",
        "city": "SHELBYVILLE",
        "state": "KY",
        "zip_code": "400659740",
        "license_type": "OFF-PREMISE",
        "latitude": "38.213818",
        "longitude": "-85.255309",
        "cases": "0.67",
        "cases12": "1.33",
        "distance": 14.417360725287846
      },
      {
        "id": "1400809001-3327063",
        "name": "LIQUOR LAND",
        "address": "400 W COURT AVE",
        "city": "JEFFERSONVILLE",
        "state": "IN",
        "zip_code": "471303534",
        "license_type": "OFF-PREMISE",
        "latitude": "38.272638",
        "longitude": "-85.746175",
        "cases": "1.33",
        "cases12": "6.53",
        "distance": 14.726135190491497
      },
      {
        "id": "1401158001-2901398",
        "name": "KROGER LIQUORS",
        "address": "1265 GOSS AVE",
        "city": "LOUISVILLE",
        "state": "KY",
        "zip_code": "402172271",
        "license_type": "OFF-PREMISE",
        "latitude": "38.226474",
        "longitude": "-85.730607",
        "cases": "0.07",
        "cases12": "0.22",
        "distance": 15.022949958722652
      },
      {
        "id": "1402199001-3105069",
        "name": "SAV A STEP",
        "address": "605 EASTERN BLVD SAVE A FOOD MART",
        "city": "CLARKSVILLE",
        "state": "IN",
        "zip_code": "471292453",
        "license_type": "OFF-PREMISE",
        "latitude": "38.298401",
        "longitude": "-85.761638",
        "cases": "0.67",
        "cases12": "0.67",
        "distance": 15.244012762034556
      },
      {
        "id": "1401158001-3613502",
        "name": "LIQUOR PALACE",
        "address": "5013 POPLAR LEVEL RD",
        "city": "LOUISVILLE",
        "state": "KY",
        "zip_code": "402191117",
        "license_type": "OFF-PREMISE",
        "latitude": "38.166291",
        "longitude": "-85.680587",
        "cases": "0.67",
        "cases12": "3.33",
        "distance": 15.248421651663715
      },
      {
        "id": "1401158001-2895002",
        "name": "JRS LIQUORS",
        "address": "900 E OAK ST 056B7815",
        "city": "LOUISVILLE",
        "state": "KY",
        "zip_code": "402042429",
        "license_type": "OFF-PREMISE",
        "latitude": "38.232868",
        "longitude": "-85.739564",
        "cases": "0.67",
        "cases12": "1.33",
        "distance": 15.275239637117362
      },
      {
        "id": "1401158001-3540811",
        "name": "MOESKIE LIQUOR",
        "address": "5046 POPLAR LEVEL RD",
        "city": "LOUISVILLE",
        "state": "KY",
        "zip_code": "402191124",
        "license_type": "OFF-PREMISE",
        "latitude": "38.163877",
        "longitude": "-85.679865",
        "cases": "2.0",
        "cases12": "4.67",
        "distance": 15.339663704499904
      },
      {
        "id": "1400809001-2768556",
        "name": "FALLS OF THE OHIO LIQUOR",
        "address": "232 S CLARK BLVD C1014678",
        "city": "CLARKSVILLE",
        "state": "IN",
        "zip_code": "471292663",
        "license_type": "OFF-PREMISE",
        "latitude": "38.285135",
        "longitude": "-85.761728",
        "cases": "0.67",
        "cases12": "2.33",
        "distance": 15.377540627929946
      },
      {
        "id": "1400809001-2973807",
        "name": "KEG LIQUORS",
        "address": "617 E LEWIS AND CLARK PKWY",
        "city": "CLARKSVILLE",
        "state": "IN",
        "zip_code": "471292217",
        "license_type": "OFF-PREMISE",
        "latitude": "38.312273",
        "longitude": "-85.766219",
        "cases": "2.0",
        "cases12": "6.0",
        "distance": 15.41566790596143
      },
      {
        "id": "1400809001-2768555",
        "name": "BILL \u0026 LOUS LIQUOR",
        "address": "313 E LEWIS \u0026 CLARK PKWY 313 HWY 131 E",
        "city": "CLARKSVILLE",
        "state": "IN",
        "zip_code": "47130",
        "license_type": "OFF-PREMISE",
        "latitude": "38.311239",
        "longitude": "-85.769803",
        "cases": "2.0",
        "cases12": "8.33",
        "distance": 15.61327558258228
      },
      {
        "id": "1400809001-2733824",
        "name": "KROGER",
        "address": "305 LEWIS \u0026 CLARK PKWY",
        "city": "CLARKSVILLE",
        "state": "IN",
        "zip_code": "471291759",
        "license_type": "OFF-PREMISE",
        "latitude": "38.31037",
        "longitude": "-85.770704",
        "cases": "1.33",
        "cases12": "4.67",
        "distance": 15.665262263364513
      },
      {
        "id": "1401158001-4532905",
        "name": "OMAR LIQUOR",
        "address": "331 E OAK ST",
        "city": "LOUISVILLE",
        "state": "KY",
        "zip_code": "402032727",
        "license_type": "OFF-PREMISE",
        "latitude": "38.234452",
        "longitude": "-85.749801",
        "cases": "1.33",
        "cases12": "4.67",
        "distance": 15.74156949185492
      },
      {
        "id": "1400809001-2769285",
        "name": "SELLERSBURG LIQUOR",
        "address": "246 S INDIANA C1006619",
        "city": "SELLERSBURG",
        "state": "IN",
        "zip_code": "471721534",
        "license_type": "OFF-PREMISE",
        "latitude": "38.397065",
        "longitude": "-85.758073",
        "cases": "2.33",
        "cases12": "3.67",
        "distance": 15.810684819024369
      },
      {
        "id": "1401158001-3636914",
        "name": "LIQUOR WORLD",
        "address": "2403 S SHELBY ST",
        "city": "LOUISVILLE",
        "state": "KY",
        "zip_code": "402172125",
        "license_type": "OFF-PREMISE",
        "latitude": "38.21409",
        "longitude": "-85.741819",
        "cases": "0.67",
        "cases12": "0.67",
        "distance": 15.955462726549396
      },
      {
        "id": "1401158001-3326472",
        "name": "GILMORE LIQUORS",
        "address": "1204 GILMORE LN",
        "city": "LOUISVILLE",
        "state": "KY",
        "zip_code": "402132308",
        "license_type": "OFF-PREMISE",
        "latitude": "38.175131",
        "longitude": "-85.712013",
        "cases": "0.67",
        "cases12": "0.67",
        "distance": 16.10321490668116
      },
      {
        "id": "1401158001-2495034",
        "name": "LIQUOR PALACE",
        "address": "5601 PRESTON HWY 5900 PRESTON HWY",
        "city": "LOUISVILLE",
        "state": "KY",
        "zip_code": "402191303",
        "license_type": "OFF-PREMISE",
        "latitude": "38.168491",
        "longitude": "-85.705813",
        "cases": "1.33",
        "cases12": "6.0",
        "distance": 16.14325205566288
      },
      {
        "id": "1401158001-4644641",
        "name": "BOURBON LIQUOR 4",
        "address": "344 E LEE ST",
        "city": "LOUISVILLE",
        "state": "KY",
        "zip_code": "402082707",
        "license_type": "OFF-PREMISE",
        "latitude": "38.222108",
        "longitude": "-85.752123",
        "cases": "0.67",
        "cases12": "2.0",
        "distance": 16.205442759456535
      },
      {
        "id": "1401158001-4068382",
        "name": "SMYRNA LIQUORS",
        "address": "8605 SMYRNA PKWY STE 101",
        "city": "LOUISVILLE",
        "state": "KY",
        "zip_code": "402283305",
        "license_type": "OFF-PREMISE",
        "latitude": "38.123962",
        "longitude": "-85.642644",
        "cases": "1.33",
        "cases12": "2.0",
        "distance": 16.253040512564326
      },
      {
        "id": "1401158001-3746587",
        "name": "BOTTLED LIQUOR",
        "address": "412 W OAK ST",
        "city": "LOUISVILLE",
        "state": "KY",
        "zip_code": "402033002",
        "license_type": "OFF-PREMISE",
        "latitude": "38.234878",
        "longitude": "-85.761037",
        "cases": "0.67",
        "cases12": "4.0",
        "distance": 16.294286016387495
      },
      {
        "id": "1401158001-4284425",
        "name": "TNK LIQUOR \u0026 GROCERY STORE",
        "address": "1001 W BROADWAY",
        "city": "LOUISVILLE",
        "state": "KY",
        "zip_code": "402032030",
        "license_type": "OFF-PREMISE",
        "latitude": "38.247385",
        "longitude": "-85.768458",
        "cases": "2.73",
        "cases12": "9.07",
        "distance": 16.373107155591637
      },
      {
        "id": "1401158001-3572418",
        "name": "STOP N GO SMOKES \u0026 LIQUOR",
        "address": "427 E WARNOCK ST",
        "city": "LOUISVILLE",
        "state": "KY",
        "zip_code": "40217",
        "license_type": "OFF-PREMISE",
        "latitude": "38.214351",
        "longitude": "-85.750897",
        "cases": "0.67",
        "cases12": "6.0",
        "distance": 16.383586896676572
      },
      {
        "id": "1401158001-2493503",
        "name": "LIQUOR BARN",
        "address": "3420 FERN VALLEY RD",
        "city": "LOUISVILLE",
        "state": "KY",
        "zip_code": "402133530",
        "license_type": "OFF-PREMISE",
        "latitude": "38.156123",
        "longitude": "-85.698255",
        "cases": "3.0",
        "cases12": "4.07",
        "distance": 16.424483142999758
      },
      {
        "id": "1401158001-2490526",
        "name": "LIQUOR CITY",
        "address": "1420 W JEFFERSON ST",
        "city": "LOUISVILLE",
        "state": "KY",
        "zip_code": "402031794",
        "license_type": "OFF-PREMISE",
        "latitude": "38.255255",
        "longitude": "-85.775094",
        "cases": "0.67",
        "cases12": "1.33",
        "distance": 16.553100956655015
      },
      {
        "id": "1401158001-2901379",
        "name": "KROGER LIQUORS",
        "address": "4501 OUTER LOOP",
        "city": "LOUISVILLE",
        "state": "KY",
        "zip_code": "402193856",
        "license_type": "OFF-PREMISE",
        "latitude": "38.139206",
        "longitude": "-85.680025",
        "cases": "0.03",
        "cases12": "0.12",
        "distance": 16.607596228012067
      },
      {
        "id": "1401158001-3625498",
        "name": "LIQUOR MART",
        "address": "7212 PRESTON HWY",
        "city": "LOUISVILLE",
        "state": "KY",
        "zip_code": "402192724",
        "license_type": "OFF-PREMISE",
        "latitude": "38.147214",
        "longitude": "-85.692239",
        "cases": "0.67",
        "cases12": "1.87",
        "distance": 16.636223568513348
      },
      {
        "id": "1401158001-2491803",
        "name": "PARKWAY LIQUORS",
        "address": "2038 NORTHWESTERN PRKWY",
        "city": "LOUISVILLE",
        "state": "KY",
        "zip_code": "402031052",
        "license_type": "OFF-PREMISE",
        "latitude": "38.26926",
        "longitude": "-85.781363",
        "cases": "2.0",
        "cases12": "3.33",
        "distance": 16.63760465988388
      },
      {
        "id": "1401158001-2484027",
        "name": "EMINENCE BEVERAGE SHOP",
        "address": "25 S KING ST",
        "city": "EMINENCE",
        "state": "KY",
        "zip_code": "400191116",
        "license_type": "OFF-PREMISE",
        "latitude": "38.367882",
        "longitude": "-85.180235",
        "cases": "1.33",
        "cases12": "2.67",
        "distance": 16.65750541211098
      },
      {
        "id": "1401158001-3243197",
        "name": "KROGER LIQUORS",
        "address": "311 BOONE STATION RD",
        "city": "SHELBYVILLE",
        "state": "KY",
        "zip_code": "400658673",
        "license_type": "OFF-PREMISE",
        "latitude": "38.215657",
        "longitude": "-85.205864",
        "cases": "0.67",
        "cases12": "1.33",
        "distance": 16.70827937476308
      },
      {
        "id": "1401158001-4644850",
        "name": "HENRY COUNTY LIQUOR",
        "address": "4785 N MAIN ST",
        "city": "EMINENCE",
        "state": "KY",
        "zip_code": "400191097",
        "license_type": "OFF-PREMISE",
        "latitude": "38.371771",
        "longitude": "-85.179992",
        "cases": "1.0",
        "cases12": "1.67",
        "distance": 16.722575399499817
      },
      {
        "id": "1401158001-2491537",
        "name": "WEST MAIN STREEL LIQUORS",
        "address": "1901 W MAIN ST",
        "city": "LOUISVILLE",
        "state": "KY",
        "zip_code": "402031152",
        "license_type": "OFF-PREMISE",
        "latitude": "38.259602",
        "longitude": "-85.781494",
        "cases": "0.67",
        "cases12": "2.0",
        "distance": 16.805797236181366
      },
      {
        "id": "1401158001-3928767",
        "name": "ALI BABA",
        "address": "1481 S 7TH ST",
        "city": "LOUISVILLE",
        "state": "KY",
        "zip_code": "402082205",
        "license_type": "OFF-PREMISE",
        "latitude": "38.227035",
        "longitude": "-85.768443",
        "cases": "0.67",
        "cases12": "0.67",
        "distance": 16.873122302589543
      },
      {
        "id": "1401158001-4032257",
        "name": "J FOOD MART",
        "address": "8506 SHEPHERDSVILLE RD",
        "city": "LOUISVILLE",
        "state": "KY",
        "zip_code": "402194537",
        "license_type": "OFF-PREMISE",
        "latitude": "38.125417",
        "longitude": "-85.665754",
        "cases": "2.67",
        "cases12": "7.33",
        "distance": 16.877205705551827
      },
      {
        "id": "1401158001-2495864",
        "name": "COXS SMOKERS OUTLET",
        "address": "8000 BLUE LICK RD",
        "city": "LOUISVILLE",
        "state": "KY",
        "zip_code": "402194306",
        "license_type": "OFF-PREMISE",
        "latitude": "38.133949",
        "longitude": "-85.684784",
        "cases": "1.0",
        "cases12": "4.73",
        "distance": 17.05197871872896
      },
      {
        "id": "1401158001-2491853",
        "name": "MR SILKS PARTY STORE",
        "address": "2100 W MUHAMMAD ALI BLVD",
        "city": "LOUISVILLE",
        "state": "KY",
        "zip_code": "402121762",
        "license_type": "OFF-PREMISE",
        "latitude": "38.254043",
        "longitude": "-85.785843",
        "cases": "0.67",
        "cases12": "2.4",
        "distance": 17.136416578440738
      },
      {
        "id": "1401158001-3270766",
        "name": "CARDINAL LIQUORS",
        "address": "2633 S 4TH ST",
        "city": "LOUISVILLE",
        "state": "KY",
        "zip_code": "402081529",
        "license_type": "OFF-PREMISE",
        "latitude": "38.210452",
        "longitude": "-85.764462",
        "cases": "0.67",
        "cases12": "5.33",
        "distance": 17.161924247229607
      },
      {
        "id": "1401158001-4598398",
        "name": "MOESKIES LIQUOR II",
        "address": "8506 PRESTON HWY",
        "city": "LOUISVILLE",
        "state": "KY",
        "zip_code": "40219",
        "license_type": "OFF-PREMISE",
        "latitude": "38.129182",
        "longitude": "-85.68211",
        "cases": "3.87",
        "cases12": "14.27",
        "distance": 17.21333211607063
      },
      {
        "id": "1401158001-2901390",
        "name": "KROGER LIQUORS",
        "address": "3167 S 2ND ST",
        "city": "LOUISVILLE",
        "state": "KY",
        "zip_code": "402081446",
        "license_type": "OFF-PREMISE",
        "latitude": "38.202561",
        "longitude": "-85.761378",
        "cases": "1.33",
        "cases12": "3.33",
        "distance": 17.268558203111034
      },
      {
        "id": "1401158001-4581569",
        "name": "LIQUOR ZONE",
        "address": "1238 HILL ST",
        "city": "LOUISVILLE",
        "state": "KY",
        "zip_code": "40210",
        "license_type": "OFF-PREMISE",
        "latitude": "38.227373",
        "longitude": "-85.776564",
        "cases": "0.67",
        "cases12": "0.67",
        "distance": 17.27044505992158
      },
      {
        "id": "1400809001-2768811",
        "name": "SUNSET SPIRITS",
        "address": "2108 E SPRING ST",
        "city": "NEW ALBANY",
        "state": "IN",
        "zip_code": "471501565",
        "license_type": "OFF-PREMISE",
        "latitude": "38.2966",
        "longitude": "-85.799318",
        "cases": "2.67",
        "cases12": "8.0",
        "distance": 17.288672547778386
      },
      {
        "id": "1401158001-4055346",
        "name": "JJ LIQUOR",
        "address": "601 WINKLER AVE",
        "city": "LOUISVILLE",
        "state": "KY",
        "zip_code": "402081553",
        "license_type": "OFF-PREMISE",
        "latitude": "38.210919",
        "longitude": "-85.768231",
        "cases": "2.67",
        "cases12": "6.67",
        "distance": 17.3301938564275
      },
      {
        "id": "1401158001-2488331",
        "name": "ALGONQUIN DRIVE IN LIQ",
        "address": "703 ALGONQUIN PKWY",
        "city": "LOUISVILLE",
        "state": "KY",
        "zip_code": "402081641",
        "license_type": "OFF-PREMISE",
        "latitude": "38.211977",
        "longitude": "-85.769809",
        "cases": "0.67",
        "cases12": "2.67",
        "distance": 17.374523444945773
      },
      {
        "id": "1401158001-3167518",
        "name": "GOOSE LIQUOR",
        "address": "2105 7TH ST RD 0",
        "city": "LOUISVILLE",
        "state": "KY",
        "zip_code": "402081006",
        "license_type": "OFF-PREMISE",
        "latitude": "38.219206",
        "longitude": "-85.777838",
        "cases": "0.67",
        "cases12": "0.67",
        "distance": 17.557022683965297
      },
      {
        "id": "1401158001-2495058",
        "name": "CROWN LIQUORS",
        "address": "5930 COOPER CHAPEL RD",
        "city": "LOUISVILLE",
        "state": "KY",
        "zip_code": "402291572",
        "license_type": "OFF-PREMISE",
        "latitude": "38.104152",
        "longitude": "-85.649405",
        "cases": "0.67",
        "cases12": "2.0",
        "distance": 17.61099287270118
      },
      {
        "id": "1401158001-2492563",
        "name": "26TH ST LIQUORS",
        "address": "2600 W CHESTNUT ST",
        "city": "LOUISVILLE",
        "state": "KY",
        "zip_code": "402111311",
        "license_type": "OFF-PREMISE",
        "latitude": "38.25267",
        "longitude": "-85.794792",
        "cases": "0.67",
        "cases12": "4.67",
        "distance": 17.629261173860428
      },
      {
        "id": "1401158001-3700849",
        "name": "GOOD TIMES",
        "address": "1318 DIXIE HWY WOLLELLA INC",
        "city": "LOUISVILLE",
        "state": "KY",
        "zip_code": "402101706",
        "license_type": "OFF-PREMISE",
        "latitude": "38.235012",
        "longitude": "-85.788247",
        "cases": "0.67",
        "cases12": "1.33",
        "distance": 17.669673529609575
      },
      {
        "id": "1400809001-2769416",
        "name": "UPTOWN LIQUOR",
        "address": "609 VINCENNES C2206698",
        "city": "NEW ALBANY",
        "state": "IN",
        "zip_code": "471503049",
        "license_type": "OFF-PREMISE",
        "latitude": "38.294689",
        "longitude": "-85.809191",
        "cases": "0.67",
        "cases12": "4.53",
        "distance": 17.835141965292674
      },
      {
        "id": "1401158001-4119680",
        "name": "DIXIE HWY LIQUOR",
        "address": "1420 DIXIE HWY",
        "city": "LOUISVILLE",
        "state": "KY",
        "zip_code": "402101710",
        "license_type": "OFF-PREMISE",
        "latitude": "38.230767",
        "longitude": "-85.789789",
        "cases": "0.67",
        "cases12": "1.2",
        "distance": 17.850817269559624
      },
      {
        "id": "1401158001-4426354",
        "name": "BEVERAGE LIQUORS",
        "address": "4450 S 3RD ST",
        "city": "LOUISVILLE",
        "state": "KY",
        "zip_code": "402141503",
        "license_type": "OFF-PREMISE",
        "latitude": "38.189422",
        "longitude": "-85.765094",
        "cases": "0.67",
        "cases12": "1.33",
        "distance": 17.89610245870422
      },
      {
        "id": "1401158001-4620674",
        "name": "SHORTYS LIQUOR STORE",
        "address": "829 S 28TH ST",
        "city": "LOUISVILLE",
        "state": "KY",
        "zip_code": "402111221",
        "license_type": "OFF-PREMISE",
        "latitude": "38.246338",
        "longitude": "-85.798645",
        "cases": "0.67",
        "cases12": "2.67",
        "distance": 17.9544442772118
      },
      {
        "id": "1401158001-2490579",
        "name": "PRIME LIQUORS",
        "address": "1442 S 22ND ST",
        "city": "LOUISVILLE",
        "state": "KY",
        "zip_code": "402101660",
        "license_type": "OFF-PREMISE",
        "latitude": "38.231305",
        "longitude": "-85.79219",
        "cases": "1.33",
        "cases12": "1.33",
        "distance": 17.95947129426395
      },
      {
        "id": "1401158001-2493668",
        "name": "BANK STREET LIQUORS",
        "address": "3627 BANK ST",
        "city": "LOUISVILLE",
        "state": "KY",
        "zip_code": "402122132",
        "license_type": "OFF-PREMISE",
        "latitude": "38.272478",
        "longitude": "-85.807464",
        "cases": "0.67",
        "cases12": "2.0",
        "distance": 17.976080672293225
      },
      {
        "id": "1401158001-4175165",
        "name": "LIQUOR ZONE 3",
        "address": "509 S 34TH ST 509 LOUIS COLEMAN JR DR",
        "city": "LOUISVILLE",
        "state": "KY",
        "zip_code": "402112901",
        "license_type": "OFF-PREMISE",
        "latitude": "38.256156",
        "longitude": "-85.807083",
        "cases": "1.33",
        "cases12": "2.0",
        "distance": 18.20867469275837
      },
      {
        "id": "1401158001-4252211",
        "name": "HIWET LIQUORS",
        "address": "3296 TAYLOR BL",
        "city": "LOUISVILLE",
        "state": "KY",
        "zip_code": "402152651",
        "license_type": "OFF-PREMISE",
        "latitude": "38.202506",
        "longitude": "-85.781599",
        "cases": "2.67",
        "cases12": "6.67",
        "distance": 18.240206862863943
      },
      {
        "id": "1401158001-2895014",
        "name": "BLUE LICK LIQUORS",
        "address": "9220 BLUE LICK RD 056B7778",
        "city": "LOUISVILLE",
        "state": "KY",
        "zip_code": "402291052",
        "license_type": "OFF-PREMISE",
        "latitude": "38.114553",
        "longitude": "-85.689893",
        "cases": "7.67",
        "cases12": "11.67",
        "distance": 18.267536739279617
      },
      {
        "id": "1401158001-3987644",
        "name": "LIQUOR 4 LESS",
        "address": "2823 7TH STREET RD",
        "city": "LOUISVILLE",
        "state": "KY",
        "zip_code": "402152101",
        "license_type": "OFF-PREMISE",
        "latitude": "38.209513",
        "longitude": "-85.786742",
        "cases": "0.67",
        "cases12": "3.0",
        "distance": 18.276356745796168
      },
      {
        "id": "1401158001-2895043",
        "name": "OYA LIQUORS",
        "address": "2135 DIXIE HWY 056B8947",
        "city": "LOUISVILLE",
        "state": "KY",
        "zip_code": "402102242",
        "license_type": "OFF-PREMISE",
        "latitude": "38.219395",
        "longitude": "-85.793732",
        "cases": "1.33",
        "cases12": "2.67",
        "distance": 18.34291192083857
      },
      {
        "id": "1401158001-3314315",
        "name": "LIQUOR ZONE",
        "address": "3310 W BROADWAY",
        "city": "LOUISVILLE",
        "state": "KY",
        "zip_code": "402112822",
        "license_type": "OFF-PREMISE",
        "latitude": "38.249463",
        "longitude": "-85.8081",
        "cases": "2.0",
        "cases12": "2.67",
        "distance": 18.384451312090604
      },
      {
        "id": "1400809001-4112733",
        "name": "LIQUOR VAULT",
        "address": "2006 GRANT LINE RD",
        "city": "NEW ALBANY",
        "state": "IN",
        "zip_code": "471504033",
        "license_type": "OFF-PREMISE",
        "latitude": "38.306895",
        "longitude": "-85.82072",
        "cases": "7.67",
        "cases12": "18.67",
        "distance": 18.386307136648288
      },
      {
        "id": "1401158001-3270767",
        "name": "LIQUOR PALACE",
        "address": "3439 TAYLOR BLVD",
        "city": "LOUISVILLE",
        "state": "KY",
        "zip_code": "402152646",
        "license_type": "OFF-PREMISE",
        "latitude": "38.198068",
        "longitude": "-85.782343",
        "cases": "0.67",
        "cases12": "2.0",
        "distance": 18.41779059791515
      },
      {
        "id": "1401158001-2492988",
        "name": "RED DOG LIQUORS",
        "address": "2930 WILSON AVE",
        "city": "LOUISVILLE",
        "state": "KY",
        "zip_code": "402111744",
        "license_type": "OFF-PREMISE",
        "latitude": "38.230468",
        "longitude": "-85.803204",
        "cases": "1.33",
        "cases12": "2.0",
        "distance": 18.539898758104478
      },
      {
        "id": "1400809001-2768564",
        "name": "BOTTLES UNLIMITED",
        "address": "427 STATE ST C2206406",
        "city": "NEW ALBANY",
        "state": "IN",
        "zip_code": "471503618",
        "license_type": "OFF-PREMISE",
        "latitude": "38.286355",
        "longitude": "-85.824845",
        "cases": "0.67",
        "cases12": "1.33",
        "distance": 18.748260250724783
      },
      {
        "id": "1401158001-3745003",
        "name": "LIQUOR ZONE",
        "address": "5610 S 3RD ST",
        "city": "LOUISVILLE",
        "state": "KY",
        "zip_code": "402142616",
        "license_type": "OFF-PREMISE",
        "latitude": "38.168958",
        "longitude": "-85.768964",
        "cases": "1.33",
        "cases12": "1.33",
        "distance": 18.837189435610792
      },
      {
        "id": "1401158001-4069485",
        "name": "LIQUOR TOWN",
        "address": "5016 MUD LN STE 101B",
        "city": "LOUISVILLE",
        "state": "KY",
        "zip_code": "402292893",
        "license_type": "OFF-PREMISE",
        "latitude": "38.091486",
        "longitude": "-85.669679",
        "cases": "0.67",
        "cases12": "1.33",
        "distance": 18.935164975456274
      },
      {
        "id": "1401158001-3234043",
        "name": "SUNSHINE LIQUOR",
        "address": "4105 TAYLOR BLVD STE B",
        "city": "LOUISVILLE",
        "state": "KY",
        "zip_code": "402152371",
        "license_type": "OFF-PREMISE",
        "latitude": "38.182757",
        "longitude": "-85.783336",
        "cases": "1.73",
        "cases12": "7.13",
        "distance": 18.982768349471307
      },
      {
        "id": "1401158001-2494392",
        "name": "EDDIES LIQUORS",
        "address": "4621 W MARKET ST",
        "city": "LOUISVILLE",
        "state": "KY",
        "zip_code": "402122662",
        "license_type": "OFF-PREMISE",
        "latitude": "38.265166",
        "longitude": "-85.824575",
        "cases": "0.67",
        "cases12": "2.67",
        "distance": 18.987365655086297
      },
      {
        "id": "1401158001-3194531",
        "name": "TIME LIQUORS LLC",
        "address": "3102 DIXIE HWY",
        "city": "LOUISVILLE",
        "state": "KY",
        "zip_code": "402165010",
        "license_type": "OFF-PREMISE",
        "latitude": "38.205737",
        "longitude": "-85.799996",
        "cases": "1.33",
        "cases12": "1.33",
        "distance": 19.03843106748741
      },
      {
        "id": "1401158001-3130361",
        "name": "LIQUOR WORLD",
        "address": "5406 ANTLE DR STE 111 56B11854",
        "city": "LOUISVILLE",
        "state": "KY",
        "zip_code": "402293906",
        "license_type": "OFF-PREMISE",
        "latitude": "38.085923",
        "longitude": "-85.665079",
        "cases": "0.67",
        "cases12": "1.33",
        "distance": 19.129700088411216
      },
      {
        "id": "1401158001-3634522",
        "name": "GOLDEN LIQUORS",
        "address": "3606 CANE RUN RD",
        "city": "LOUISVILLE",
        "state": "KY",
        "zip_code": "402111946",
        "license_type": "OFF-PREMISE",
        "latitude": "38.221418",
        "longitude": "-85.812696",
        "cases": "2.67",
        "cases12": "4.0",
        "distance": 19.243483527744928
      },
      {
        "id": "1400809001-2768568",
        "name": "BRIDGE LIQUOR",
        "address": "110 KNABLE C2204299",
        "city": "NEW ALBANY",
        "state": "IN",
        "zip_code": "471504652",
        "license_type": "OFF-PREMISE",
        "latitude": "38.303062",
        "longitude": "-85.837213",
        "cases": "3.2",
        "cases12": "7.73",
        "distance": 19.296120069749083
      },
      {
        "id": "1401158001-3960979",
        "name": "LIQUOR SKY",
        "address": "11489 PRESTON HWY",
        "city": "LOUISVILLE",
        "state": "KY",
        "zip_code": "402292863",
        "license_type": "OFF-PREMISE",
        "latitude": "38.083492",
        "longitude": "-85.666704",
        "cases": "0.67",
        "cases12": "1.33",
        "distance": 19.319150376338346
      },
      {
        "id": "1400809001-70924",
        "name": "KROGER",
        "address": "200 NEW ALBANY PLZ",
        "city": "NEW ALBANY",
        "state": "IN",
        "zip_code": "471504658",
        "license_type": "OFF-PREMISE",
        "latitude": "38.30527",
        "longitude": "-85.838003",
        "cases": "1.33",
        "cases12": "5.33",
        "distance": 19.328527897977544
      },
      {
        "id": "1401158001-3578472",
        "name": "HILLVIEW WINE AND SPIRIT",
        "address": "1679 OLD PRESTON HWY N",
        "city": "LOUISVILLE",
        "state": "KY",
        "zip_code": "402293297",
        "license_type": "OFF-PREMISE",
        "latitude": "38.080103",
        "longitude": "-85.66845",
        "cases": "2.0",
        "cases12": "2.67",
        "distance": 19.56868056956422
      },
      {
        "id": "1401158001-3234056",
        "name": "JOY LIQUORS",
        "address": "1509 CRUMS LN",
        "city": "LOUISVILLE",
        "state": "KY",
        "zip_code": "402163823",
        "license_type": "OFF-PREMISE",
        "latitude": "38.189598",
        "longitude": "-85.802161",
        "cases": "0.67",
        "cases12": "0.67",
        "distance": 19.642714287907555
      },
      {
        "id": "1401158001-2494309",
        "name": "CLOVERLEAF LIQUORS",
        "address": "4447 MANSLICK RD",
        "city": "LOUISVILLE",
        "state": "KY",
        "zip_code": "402163950",
        "license_type": "OFF-PREMISE",
        "latitude": "38.182831",
        "longitude": "-85.799496",
        "cases": "3.33",
        "cases12": "4.0",
        "distance": 19.740122470161257
      },
      {
        "id": "1401158001-4546198",
        "name": "DEES LIQUOR STORE",
        "address": "5435 NEW CUT RD",
        "city": "LOUISVILLE",
        "state": "KY",
        "zip_code": "402144254",
        "license_type": "OFF-PREMISE",
        "latitude": "38.147744",
        "longitude": "-85.775484",
        "cases": "1.33",
        "cases12": "2.0",
        "distance": 19.982720610863968
      },
      {
        "id": "1401158001-2494020",
        "name": "LIQUOR DEPOT INC",
        "address": "4048 DIXIE HWY",
        "city": "LOUISVILLE",
        "state": "KY",
        "zip_code": "402163808",
        "license_type": "OFF-PREMISE",
        "latitude": "38.18986",
        "longitude": "-85.810261",
        "cases": "0.67",
        "cases12": "0.71",
        "distance": 20.023895273175302
      },
      {
        "id": "1401158001-3595209",
        "name": "NATIONAL LIQUORS",
        "address": "8808 NATIONAL TPKE",
        "city": "FAIRDALE",
        "state": "KY",
        "zip_code": "401189644",
        "license_type": "OFF-PREMISE",
        "latitude": "38.122075",
        "longitude": "-85.748831",
        "cases": "0.67",
        "cases12": "2.0",
        "distance": 20.03515955933398
      },
      {
        "id": "1401158001-71511",
        "name": "KROGER",
        "address": "5533 NEW CUT RD",
        "city": "LOUISVILLE",
        "state": "KY",
        "zip_code": "402144329",
        "license_type": "OFF-PREMISE",
        "latitude": "38.144692",
        "longitude": "-85.773955",
        "cases": "1.33",
        "cases12": "1.33",
        "distance": 20.045517363632204
      },
      {
        "id": "1401158001-2895067",
        "name": "CANE RUN LIQUOR",
        "address": "4109 CANE RUN RD 056B9957",
        "city": "LOUISVILLE",
        "state": "KY",
        "zip_code": "402164851",
        "license_type": "OFF-PREMISE",
        "latitude": "38.203922",
        "longitude": "-85.830586",
        "cases": "1.67",
        "cases12": "6.33",
        "distance": 20.603245087375576
      },
      {
        "id": "1401158001-3350944",
        "name": "COXS SMOKERS OUTLET",
        "address": "117 SETTLERS CENTER RD",
        "city": "TAYLORSVILLE",
        "state": "KY",
        "zip_code": "400717732",
        "license_type": "OFF-PREMISE",
        "latitude": "38.042569",
        "longitude": "-85.341968",
        "cases": "0.67",
        "cases12": "0.67",
        "distance": 20.789029935066285
      },
      {
        "id": "1401158001-4309604",
        "name": "DIXIE LIQUOR",
        "address": "4525 DIXIE HWY",
        "city": "LOUISVILLE",
        "state": "KY",
        "zip_code": "402162868",
        "license_type": "OFF-PREMISE",
        "latitude": "38.177866",
        "longitude": "-85.818871",
        "cases": "0.67",
        "cases12": "1.33",
        "distance": 20.826503896985482
      },
      {
        "id": "1401158001-4512587",
        "name": "MAGIC LIQUOR",
        "address": "1629 GAGEL AVE",
        "city": "LOUISVILLE",
        "state": "KY",
        "zip_code": "402162735",
        "license_type": "OFF-PREMISE",
        "latitude": "38.173726",
        "longitude": "-85.81723",
        "cases": "0.67",
        "cases12": "1.33",
        "distance": 20.888208177426844
      },
      {
        "id": "1401158001-3957563",
        "name": "CHEERS LIQUOR",
        "address": "7321 SAINT ANDREWS CHURCH RD",
        "city": "LOUISVILLE",
        "state": "KY",
        "zip_code": "402144188",
        "license_type": "OFF-PREMISE",
        "latitude": "38.154007",
        "longitude": "-85.802594",
        "cases": "0.67",
        "cases12": "0.67",
        "distance": 20.92908365953896
      },
      {
        "id": "1401158001-4383067",
        "name": "FAST LANE LIQUOR",
        "address": "19 FAIRGROUND RD",
        "city": "BEDFORD",
        "state": "KY",
        "zip_code": "400067808",
        "license_type": "OFF-PREMISE",
        "latitude": "38.598443",
        "longitude": "-85.317688",
        "cases": "1.33",
        "cases12": "4.67",
        "distance": 21.036642985879993
      },
      {
        "id": "1401158001-2494247",
        "name": "CORK N BOTTLE",
        "address": "4350 CANE RUN RD",
        "city": "LOUISVILLE",
        "state": "KY",
        "zip_code": "402164568",
        "license_type": "OFF-PREMISE",
        "latitude": "38.198281",
        "longitude": "-85.839286",
        "cases": "2.0",
        "cases12": "5.33",
        "distance": 21.1926847816894
      },
      {
        "id": "1401158001-3992387",
        "name": "KROGER LIQUORS",
        "address": "4915 DIXIE HWY STE B",
        "city": "LOUISVILLE",
        "state": "KY",
        "zip_code": "402162501",
        "license_type": "OFF-PREMISE",
        "latitude": "38.167806",
        "longitude": "-85.825906",
        "cases": "0.67",
        "cases12": "2.0",
        "distance": 21.500359099236054
      },
      {
        "id": "1401158001-4060852",
        "name": "44 WINE \u0026 SPIRITS",
        "address": "6420 HIGHWAY 44 E",
        "city": "MOUNT WASHINGTON",
        "state": "KY",
        "zip_code": "400476706",
        "license_type": "OFF-PREMISE",
        "latitude": "38.026851",
        "longitude": "-85.612716",
        "cases": "0.67",
        "cases12": "0.67",
        "distance": 21.62666523465727
      },
      {
        "id": "1401158001-3085589",
        "name": "BROOKS LIQUOR",
        "address": "150 BROOKS WAY STE 1",
        "city": "BROOKS",
        "state": "KY",
        "zip_code": "401096105",
        "license_type": "OFF-PREMISE",
        "latitude": "38.060363",
        "longitude": "-85.705291",
        "cases": "0.67",
        "cases12": "1.33",
        "distance": 21.794433531782214
      },
      {
        "id": "1401158001-2495804",
        "name": "SAINT ANDREWS LIQUORS",
        "address": "7835 SAINT ANDREWS CHURCH RD",
        "city": "LOUISVILLE",
        "state": "KY",
        "zip_code": "402143852",
        "license_type": "OFF-PREMISE",
        "latitude": "38.150337",
        "longitude": "-85.821765",
        "cases": "1.33",
        "cases12": "4.0",
        "distance": 21.938115539581087
      }
    ]
  }
}
